[
    {
        "name": "차차미당",
        "category": "두쫀쿠",
        "area": "광주 광산구 장덕동",
        "address": "광주광역시 광산구 장덕동 1394",
        "lat": 35.19341,
        "lng": 126.82032
    },
    {
        "name": "또굼샵",
        "category": "두쫀쿠",
        "area": "광주 북구 문흥동",
        "address": "광주광역시 북구 문흥동 743-6",
        "lat": 35.21587,
        "lng": 126.90041
    },
    {
        "name": "꾸르베이크샵",
        "category": "두쫀쿠",
        "area": "광주 광산구 수완동",
        "address": "광주광역시 광산구 수완동 1293",
        "lat": 35.19263,
        "lng": 126.82371
    },
    {
        "name": "인세인쿠키",
        "category": "두쫀쿠",
        "area": "광주 동구 서석동",
        "address": "광주광역시 동구 서석동 11-12",
        "lat": 35.14682,
        "lng": 126.92954
    },
    {
        "name": "케주베이커리",
        "category": "두쫀쿠",
        "area": "광주 북구 용봉동",
        "address": "광주광역시 북구 용봉동 1217-11",
        "lat": 35.18091,
        "lng": 126.90987
    },
    {
        "name": "갸또수완",
        "category": "두쫀쿠",
        "area": "광주 광산구 수완동",
        "address": "광주광역시 광산구 수완동 1088",
        "lat": 35.19074,
        "lng": 126.82194
    },
    {
        "name": "파티세리시그널",
        "category": "두쫀쿠",
        "area": "광주 광산구 수완동",
        "address": "광주광역시 광산구 수완동 1612",
        "lat": 35.19498,
        "lng": 126.82688
    },
    {
        "name": "데이오브벌스",
        "category": "두쫀쿠",
        "area": "광주 동구 동명동",
        "address": "광주광역시 동구 동명동 183-5",
        "lat": 35.14793,
        "lng": 126.92436
    },
    {
        "name": "원업커피",
        "category": "두쫀쿠",
        "area": "광주 서구 치평동",
        "address": "광주광역시 서구 치평동 1181",
        "lat": 35.15487,
        "lng": 126.85241
    },
    {
        "name": "멜크",
        "category": "두쫀쿠",
        "area": "광주 동구 동명동",
        "address": "광주광역시 동구 동명동 75-20",
        "lat": 35.14612,
        "lng": 126.92311
    },
    {
        "name": "몰레디저트카페",
        "category": "두쫀쿠",
        "area": "광주 광산구 수완동",
        "address": "광주광역시 광산구 수완동 1711",
        "lat": 35.19644,
        "lng": 126.82874
    },
    {
        "name": "미쓰당",
        "category": "두쫀쿠",
        "area": "광주 북구 풍향동",
        "address": "광주광역시 북구 풍향동 25-58",
        "lat": 35.17366,
        "lng": 126.92358
    },
    {
        "name": "브릭집",
        "category": "두쫀쿠",
        "area": "광주 서구 풍암동",
        "address": "광주광역시 서구 풍암동 989-12",
        "lat": 35.13187,
        "lng": 126.86342
    },
    {
        "name": "비안크",
        "category": "두쫀쿠",
        "area": "광주 광산구 지평동",
        "address": "광주광역시 광산구 지평동 23-1",
        "lat": 35.21412,
        "lng": 126.81833
    },
    {
        "name": "카페루아흐",
        "category": "두쫀쿠",
        "area": "광주 북구 매곡동",
        "address": "광주광역시 북구 매곡동 214-1",
        "lat": 35.20274,
        "lng": 126.89461
    },
    {
        "name": "BLCK",
        "category": "두쫀쿠",
        "area": "광주 남구 양림동",
        "address": "광주광역시 남구 양림동 99-23",
        "lat": 35.13498,
        "lng": 126.91522
    },
    {
        "name": "안젤라수",
        "category": "두쫀쿠",
        "area": "광주 서구 화정동",
        "address": "광주광역시 서구 화정동 832-7",
        "lat": 35.14831,
        "lng": 126.87619
    },
    {
        "name": "우트롱",
        "category": "두쫀쿠",
        "area": "광주 서구 치평동",
        "address": "광주광역시 서구 치평동 1208-5",
        "lat": 35.15562,
        "lng": 126.85374
    },
    {
        "name": "리데커피룸",
        "category": "두쫀쿠",
        "area": "광주 서구 화정동",
        "address": "광주광역시 서구 화정동 755-14",
        "lat": 35.14691,
        "lng": 126.87403
    },
    {
        "name": "디저또",
        "category": "두쫀쿠",
        "area": "광주 광산구 신창동",
        "address": "광주광역시 광산구 신창동 1236-7",
        "lat": 35.19784,
        "lng": 126.85692
    },
    {
        "name": "소담도담",
        "category": "두쫀쿠",
        "area": "광주 서구 풍암동",
        "address": "광주광역시 서구 풍암동 954-1",
        "lat": 35.13264,
        "lng": 126.86192
    },
    {
        "name": "워크인스 웰컴",
        "category": "두쫀쿠",
        "area": "광주 남구 양림동",
        "address": "광주광역시 남구 양림동 202-23",
        "lat": 35.13218,
        "lng": 126.91784
    },
    {
        "name": "두껍 베이커리",
        "category": "두쫀쿠",
        "area": "광주 동구 충장로·제봉로 일대",
        "address": "광주광역시 동구 제봉로 88 1층",
        "lat": 35.14756,
        "lng": 126.92173
    },
    {
        "name": "따담",
        "category": "두쫀쿠",
        "area": "광주 동구 동명동",
        "address": "광주광역시 동구 동명동 228-86",
        "lat": 35.14892,
        "lng": 126.92488
    },
    {
        "name": "아코다",
        "category": "두쫀쿠",
        "area": "광주 서구 화정동",
        "address": "광주광역시 서구 화정로153번길 12",
        "lat": 35.14877,
        "lng": 126.87684
    }
]